{
  "version": "1.0",
  "country": "MA",
  "cities": [
    { "id": 1, "name": "Oujda", "coordinate": { "lat": 34.6805, "lng": -1.9076 } },
    { "id": 2, "name": "Casablanca", "coordinate": { "lat": 33.5731, "lng": -7.5898 } },
    { "id": 3, "name": "Rabat", "coordinate": { "lat": 34.0209, "lng": -6.8416 } },
    { "id": 4, "name": "Fès", "coordinate": { "lat": 34.0181, "lng": -5.0078 } },
    { "id": 5, "name": "Marrakech", "coordinate": { "lat": 31.6295, "lng": -7.9811 } },
    { "id": 6, "name": "Meknès", "coordinate": { "lat": 33.8935, "lng": -5.5473 } },
    { "id": 7, "name": "Tanger", "coordinate": { "lat": 35.7595, "lng": -5.8340 } },
    { "id": 8, "name": "Agadir", "coordinate": { "lat": 30.4278, "lng": -9.5981 } },
    { "id": 9, "name": "Kenitra", "coordinate": { "lat": 34.2610, "lng": -6.5802 } },
    { "id": 10, "name": "Tétouan", "coordinate": { "lat": 35.5785, "lng": -5.3684 } },
    { "id": 11, "name": "Safi", "coordinate": { "lat": 32.2994, "lng": -9.2372 } },
    { "id": 12, "name": "El Jadida", "coordinate": { "lat": 33.2316, "lng": -8.5007 } },
    { "id": 13, "name": "Béni Mellal", "coordinate": { "lat": 32.3373, "lng": -6.3498 } },
    { "id": 14, "name": "Taza", "coordinate": { "lat": 34.2100, "lng": -4.0100 } },
    { "id": 15, "name": "Settat", "coordinate": { "lat": 33.0011, "lng": -7.6166 } },
    { "id": 16, "name": "Khouribga", "coordinate": { "lat": 32.8811, "lng": -6.9063 } },
    { "id": 17, "name": "Nador", "coordinate": { "lat": 35.1681, "lng": -2.9330 } },
    { "id": 18, "name": "Larache", "coordinate": { "lat": 35.1932, "lng": -6.1563 } },
    { "id": 19, "name": "Khémisset", "coordinate": { "lat": 33.8242, "lng": -6.0664 } },
    { "id": 20, "name": "Essaouira", "coordinate": { "lat": 31.5085, "lng": -9.7595 } },
    { "id": 21, "name": "Ouarzazate", "coordinate": { "lat": 30.9200, "lng": -6.8936 } },
    { "id": 22, "name": "Errachidia", "coordinate": { "lat": 31.9314, "lng": -4.4288 } },
    { "id": 23, "name": "Berrechid", "coordinate": { "lat": 33.2654, "lng": -7.5876 } },
    { "id": 24, "name": "Mohammedia", "coordinate": { "lat": 33.6861, "lng": -7.3830 } },
    { "id": 25, "name": "Berkane", "coordinate": { "lat": 34.9200, "lng": -2.3200 } },
    { "id": 26, "name": "Taourirt", "coordinate": { "lat": 34.4072, "lng": -2.8931 } },
    { "id": 27, "name": "Azrou", "coordinate": { "lat": 33.4340, "lng": -5.2220 } },
    { "id": 28, "name": "Ifrane", "coordinate": { "lat": 33.5228, "lng": -5.1109 } },
    { "id": 29, "name": "Ksar El Kébir", "coordinate": { "lat": 35.0004, "lng": -5.9000 } },
    { "id": 30, "name": "Tiznit", "coordinate": { "lat": 29.6974, "lng": -9.8022 } },
    { "id": 31, "name": "Taroudant", "coordinate": { "lat": 30.4702, "lng": -8.8770 } },
    { "id": 32, "name": "Guelmim", "coordinate": { "lat": 28.9836, "lng": -10.0573 } },
    { "id": 33, "name": "Tan-Tan", "coordinate": { "lat": 28.4380, "lng": -11.1033 } },
    { "id": 34, "name": "Sidi Kacem", "coordinate": { "lat": 34.2260, "lng": -5.7085 } },
    { "id": 35, "name": "Chefchaouen", "coordinate": { "lat": 35.1688, "lng": -5.2636 } },
    { "id": 36, "name": "Al Hoceima", "coordinate": { "lat": 35.2517, "lng": -3.9372 } },
    { "id": 37, "name": "Sidi Slimane", "coordinate": { "lat": 34.2650, "lng": -5.9272 } },
    { "id": 38, "name": "Midelt", "coordinate": { "lat": 32.6800, "lng": -4.7400 } },
    { "id": 39, "name": "Jerada", "coordinate": { "lat": 34.3100, "lng": -2.1600 } },
    { "id": 40, "name": "Figuig", "coordinate": { "lat": 32.1140, "lng": -1.2290 } },
    { "id": 41, "name": "Boulemane", "coordinate": { "lat": 33.3625, "lng": -4.7300 } },
    { "id": 42, "name": "Chichaoua", "coordinate": { "lat": 31.5450, "lng": -8.7660 } },
    { "id": 43, "name": "Sidi Bennour", "coordinate": { "lat": 32.6490, "lng": -8.4290 } },
    { "id": 44, "name": "Azemmour", "coordinate": { "lat": 33.2900, "lng": -8.3400 } },
    { "id": 45, "name": "Benslimane", "coordinate": { "lat": 33.6153, "lng": -7.1300 } },
    { "id": 46, "name": "Skhirat-Témara", "coordinate": { "lat": 33.8530, "lng": -6.9060 } },
    { "id": 47, "name": "Salé", "coordinate": { "lat": 34.0531, "lng": -6.7985 } },
    { "id": 48, "name": "Youssoufia", "coordinate": { "lat": 32.2465, "lng": -8.5298 } },
    { "id": 49, "name": "Inezgane", "coordinate": { "lat": 30.3558, "lng": -9.5362 } },
    { "id": 50, "name": "Ait Melloul", "coordinate": { "lat": 30.3342, "lng": -9.4975 } },
    { "id": 51, "name": "Kelaa des Sraghna", "coordinate": { "lat": 32.0504, "lng": -7.4094 } },
    { "id": 52, "name": "Khenifra", "coordinate": { "lat": 32.9340, "lng": -5.6714 } },
    { "id": 53, "name": "Had Soualem", "coordinate": { "lat": 33.4200, "lng": -7.8600 } },
    { "id": 54, "name": "Sefrou", "coordinate": { "lat": 33.8305, "lng": -4.8353 } },
    { "id": 55, "name": "Moulay Yacoub", "coordinate": { "lat": 34.0873, "lng": -5.1788 } },
    { "id": 56, "name": "Boujdour", "coordinate": { "lat": 26.1258, "lng": -14.4847 } },
    { "id": 57, "name": "Laâyoune", "coordinate": { "lat": 27.1536, "lng": -13.2033 } },
    { "id": 58, "name": "Dakhla", "coordinate": { "lat": 23.6848, "lng": -15.9570 } },
    { "id": 59, "name": "Smara", "coordinate": { "lat": 26.7394, "lng": -11.6718 } },
    { "id": 60, "name": "Guercif", "coordinate": { "lat": 34.2264, "lng": -3.3521 } },
    { "id": 61, "name": "Zagora", "coordinate": { "lat": 30.3302, "lng": -5.8381 } },
    { "id": 62, "name": "Tinghir", "coordinate": { "lat": 31.5147, "lng": -5.5328 } },
    { "id": 63, "name": "Assa-Zag", "coordinate": { "lat": 28.6064, "lng": -9.4292 } },
    { "id": 64, "name": "Tata", "coordinate": { "lat": 29.7486, "lng": -7.9722 } },
    { "id": 65, "name": "Sidi Ifni", "coordinate": { "lat": 29.3797, "lng": -10.1728 } },
    { "id": 66, "name": "Taounate", "coordinate": { "lat": 34.5360, "lng": -4.6400 } },
    { "id": 67, "name": "Bouarfa", "coordinate": { "lat": 32.5294, "lng": -1.9517 } },
    { "id": 68, "name": "Missour", "coordinate": { "lat": 33.0500, "lng": -3.9900 } },
    { "id": 69, "name": "Oued Zem", "coordinate": { "lat": 32.8628, "lng": -6.5736 } },
    { "id": 70, "name": "Fquih Ben Salah", "coordinate": { "lat": 32.5000, "lng": -6.6900 } },
    { "id": 71, "name": "Rhamna", "coordinate": { "lat": 31.8700, "lng": -7.9600 } },
    { "id": 72, "name": "Rehamna", "coordinate": { "lat": 32.0800, "lng": -8.0500 } },
    { "id": 73, "name": "Aousserd", "coordinate": { "lat": 22.5514, "lng": -14.3297 } },
    { "id": 74, "name": "Es-Semara", "coordinate": { "lat": 26.7410, "lng": -11.6700 } },
    { "id": 75, "name": "Oulmes", "coordinate": { "lat": 33.4289, "lng": -6.0003 } },
    { "id": 76, "name": "Driouch", "coordinate": { "lat": 34.9750, "lng": -3.3900 } },
    { "id": 77, "name": "Fahs-Anjra", "coordinate": { "lat": 35.7600, "lng": -5.6500 } },
    { "id": 78, "name": "Ouezzane", "coordinate": { "lat": 34.7956, "lng": -5.5783 } },
    { "id": 79, "name": "M'diq-Fnideq", "coordinate": { "lat": 35.6833, "lng": -5.3264 } },
    { "id": 80, "name": "Sidi Taibi", "coordinate": { "lat": 34.1200, "lng": -6.6900 } },
    { "id": 81, "name": "Bir Jdid", "coordinate": { "lat": 33.3700, "lng": -8.0300 } },
    { "id": 82, "name": "Médiouna", "coordinate": { "lat": 33.4500, "lng": -7.5100 } },
    { "id": 83, "name": "Nouaceur", "coordinate": { "lat": 33.3667, "lng": -7.5833 } },
    { "id": 84, "name": "Ait Ourir", "coordinate": { "lat": 31.5600, "lng": -7.6600 } },
    { "id": 85, "name": "Tahanaout", "coordinate": { "lat": 31.3500, "lng": -7.9500 } },
    { "id": 86, "name": "Sidi Rahal", "coordinate": { "lat": 31.6200, "lng": -7.1100 } },
    { "id": 87, "name": "Ait Baha", "coordinate": { "lat": 30.0700, "lng": -9.1500 } }
  ]
}
