{
  "version": "1.0",
  "lastUpdated": "2026-04-01",
  "states": [
    {
      "code": "AN",
      "name": "Andaman and Nicobar Islands",
      "type": "ut",
      "capital": "Port Blair",
      "coordinate": {
        "lat": 11.6234,
        "lng": 92.7265
      },
      "rtos": [
        {
          "code": "01",
          "name": "Port Blair",
          "fullCode": "AN01",
          "district": "South Andaman",
          "coordinate": {
            "lat": 11.6234,
            "lng": 92.7265
          }
        },
        {
          "code": "02",
          "name": "Car Nicobar",
          "fullCode": "AN02",
          "district": "Nicobar",
          "coordinate": {
            "lat": 9.1528,
            "lng": 92.7824
          }
        }
      ]
    },
    {
      "code": "AP",
      "name": "Andhra Pradesh",
      "type": "state",
      "capital": "Amaravati",
      "coordinate": {
        "lat": 16.5062,
        "lng": 80.648
      },
      "rtos": [
        {
          "code": "01",
          "name": "Vijayawada (Old)",
          "fullCode": "AP01",
          "district": "Krishna",
          "coordinate": {
            "lat": 16.5062,
            "lng": 80.648
          }
        },
        {
          "code": "02",
          "name": "Vijayawada",
          "fullCode": "AP02",
          "district": "Krishna",
          "coordinate": {
            "lat": 16.5062,
            "lng": 80.648
          }
        },
        {
          "code": "03",
          "name": "Machilipatnam",
          "fullCode": "AP03",
          "district": "Krishna",
          "coordinate": {
            "lat": 16.1875,
            "lng": 81.1389
          }
        },
        {
          "code": "04",
          "name": "Rajahmundry",
          "fullCode": "AP04",
          "district": "East Godavari",
          "coordinate": {
            "lat": 17.0005,
            "lng": 81.804
          }
        },
        {
          "code": "05",
          "name": "Kakinada",
          "fullCode": "AP05",
          "district": "East Godavari",
          "coordinate": {
            "lat": 16.9891,
            "lng": 82.2475
          }
        },
        {
          "code": "06",
          "name": "Amalapuram",
          "fullCode": "AP06",
          "district": "East Godavari",
          "coordinate": {
            "lat": 16.5788,
            "lng": 82.003
          }
        },
        {
          "code": "07",
          "name": "Visakhapatnam",
          "fullCode": "AP07",
          "district": "Visakhapatnam",
          "coordinate": {
            "lat": 17.6868,
            "lng": 83.2185
          }
        },
        {
          "code": "08",
          "name": "Narsipatnam",
          "fullCode": "AP08",
          "district": "Visakhapatnam",
          "coordinate": {
            "lat": 17.6667,
            "lng": 82.6167
          }
        },
        {
          "code": "09",
          "name": "Guntur",
          "fullCode": "AP09",
          "district": "Guntur",
          "coordinate": {
            "lat": 16.3067,
            "lng": 80.4365
          }
        },
        {
          "code": "10",
          "name": "Narasaraopet",
          "fullCode": "AP10",
          "district": "Guntur",
          "coordinate": {
            "lat": 16.2356,
            "lng": 80.0478
          }
        },
        {
          "code": "11",
          "name": "Tenali",
          "fullCode": "AP11",
          "district": "Guntur",
          "coordinate": {
            "lat": 16.2428,
            "lng": 80.64
          }
        },
        {
          "code": "12",
          "name": "Ongole",
          "fullCode": "AP12",
          "district": "Prakasam",
          "coordinate": {
            "lat": 15.5057,
            "lng": 80.0499
          }
        },
        {
          "code": "13",
          "name": "Nellore",
          "fullCode": "AP13",
          "district": "Nellore",
          "coordinate": {
            "lat": 14.4426,
            "lng": 79.9865
          }
        },
        {
          "code": "14",
          "name": "Kavali",
          "fullCode": "AP14",
          "district": "Nellore",
          "coordinate": {
            "lat": 14.9167,
            "lng": 79.9833
          }
        },
        {
          "code": "15",
          "name": "Tirupati",
          "fullCode": "AP15",
          "district": "Chittoor",
          "coordinate": {
            "lat": 13.6288,
            "lng": 79.4192
          }
        },
        {
          "code": "16",
          "name": "Chittoor",
          "fullCode": "AP16",
          "district": "Chittoor",
          "coordinate": {
            "lat": 13.2172,
            "lng": 79.1003
          }
        },
        {
          "code": "17",
          "name": "Madanapalle",
          "fullCode": "AP17",
          "district": "Chittoor",
          "coordinate": {
            "lat": 13.55,
            "lng": 78.5
          }
        },
        {
          "code": "18",
          "name": "Kadapa",
          "fullCode": "AP18",
          "district": "YSR Kadapa",
          "coordinate": {
            "lat": 14.4674,
            "lng": 78.8241
          }
        },
        {
          "code": "19",
          "name": "Proddatur",
          "fullCode": "AP19",
          "district": "YSR Kadapa",
          "coordinate": {
            "lat": 14.7502,
            "lng": 78.5481
          }
        },
        {
          "code": "20",
          "name": "Kurnool",
          "fullCode": "AP20",
          "district": "Kurnool",
          "coordinate": {
            "lat": 15.8281,
            "lng": 78.0373
          }
        },
        {
          "code": "21",
          "name": "Anantapur",
          "fullCode": "AP21",
          "district": "Anantapur",
          "coordinate": {
            "lat": 14.6819,
            "lng": 77.6006
          }
        },
        {
          "code": "22",
          "name": "Hindupur",
          "fullCode": "AP22",
          "district": "Anantapur",
          "coordinate": {
            "lat": 13.829,
            "lng": 77.491
          }
        },
        {
          "code": "23",
          "name": "Srikakulam",
          "fullCode": "AP23",
          "district": "Srikakulam",
          "coordinate": {
            "lat": 18.2949,
            "lng": 83.8938
          }
        },
        {
          "code": "24",
          "name": "Vizianagaram",
          "fullCode": "AP24",
          "district": "Vizianagaram",
          "coordinate": {
            "lat": 18.1067,
            "lng": 83.3956
          }
        },
        {
          "code": "25",
          "name": "Eluru",
          "fullCode": "AP25",
          "district": "West Godavari",
          "coordinate": {
            "lat": 16.7107,
            "lng": 81.0952
          }
        },
        {
          "code": "26",
          "name": "Nandyal",
          "fullCode": "AP26",
          "district": "Kurnool",
          "coordinate": {
            "lat": 15.4767,
            "lng": 78.4836
          }
        },
        {
          "code": "27",
          "name": "Tadepalligudem",
          "fullCode": "AP27",
          "district": "West Godavari",
          "coordinate": {
            "lat": 16.8145,
            "lng": 81.5268
          }
        },
        {
          "code": "28",
          "name": "Bhimavaram",
          "fullCode": "AP28",
          "district": "West Godavari",
          "coordinate": {
            "lat": 16.5447,
            "lng": 81.5212
          }
        },
        {
          "code": "29",
          "name": "Adoni",
          "fullCode": "AP29",
          "district": "Kurnool",
          "coordinate": {
            "lat": 15.6322,
            "lng": 77.2773
          }
        },
        {
          "code": "30",
          "name": "Gudur",
          "fullCode": "AP30",
          "district": "Nellore",
          "coordinate": {
            "lat": 14.15,
            "lng": 79.85
          }
        },
        {
          "code": "31",
          "name": "Anakapalli",
          "fullCode": "AP31",
          "district": "Visakhapatnam",
          "coordinate": {
            "lat": 17.691,
            "lng": 83.0037
          }
        },
        {
          "code": "32",
          "name": "Guntakal",
          "fullCode": "AP32",
          "district": "Anantapur",
          "coordinate": {
            "lat": 15.1667,
            "lng": 77.3833
          }
        },
        {
          "code": "33",
          "name": "Dharmavaram",
          "fullCode": "AP33",
          "district": "Anantapur",
          "coordinate": {
            "lat": 14.4142,
            "lng": 77.7208
          }
        },
        {
          "code": "34",
          "name": "Markapur",
          "fullCode": "AP34",
          "district": "Prakasam",
          "coordinate": {
            "lat": 15.7333,
            "lng": 79.2667
          }
        },
        {
          "code": "35",
          "name": "Chirala",
          "fullCode": "AP35",
          "district": "Prakasam",
          "coordinate": {
            "lat": 15.8242,
            "lng": 80.3522
          }
        },
        {
          "code": "36",
          "name": "Palakollu",
          "fullCode": "AP36",
          "district": "West Godavari",
          "coordinate": {
            "lat": 16.5167,
            "lng": 81.7333
          }
        },
        {
          "code": "37",
          "name": "Rajam",
          "fullCode": "AP37",
          "district": "Srikakulam",
          "coordinate": {
            "lat": 18.45,
            "lng": 83.65
          }
        },
        {
          "code": "38",
          "name": "Parvathipuram",
          "fullCode": "AP38",
          "district": "Vizianagaram",
          "coordinate": {
            "lat": 18.7667,
            "lng": 83.4333
          }
        },
        {
          "code": "39",
          "name": "Narasaraopet (New)",
          "fullCode": "AP39",
          "district": "Palnadu",
          "coordinate": {
            "lat": 16.2356,
            "lng": 80.0478
          }
        },
        {
          "code": "40",
          "name": "Paderu",
          "fullCode": "AP40",
          "district": "Alluri Sitharama Raju",
          "coordinate": {
            "lat": 18.0731,
            "lng": 82.6631
          }
        }
      ]
    },
    {
      "code": "AR",
      "name": "Arunachal Pradesh",
      "type": "state",
      "capital": "Itanagar",
      "coordinate": {
        "lat": 27.0844,
        "lng": 93.6053
      },
      "rtos": [
        {
          "code": "01",
          "name": "Itanagar",
          "fullCode": "AR01",
          "district": "Papum Pare",
          "coordinate": {
            "lat": 27.0844,
            "lng": 93.6053
          }
        },
        {
          "code": "02",
          "name": "Tawang",
          "fullCode": "AR02",
          "district": "Tawang",
          "coordinate": {
            "lat": 27.586,
            "lng": 91.8687
          }
        },
        {
          "code": "03",
          "name": "Bomdila",
          "fullCode": "AR03",
          "district": "West Kameng",
          "coordinate": {
            "lat": 27.2645,
            "lng": 92.4159
          }
        },
        {
          "code": "04",
          "name": "Seppa",
          "fullCode": "AR04",
          "district": "East Kameng",
          "coordinate": {
            "lat": 27.3333,
            "lng": 92.9167
          }
        },
        {
          "code": "05",
          "name": "Ziro",
          "fullCode": "AR05",
          "district": "Lower Subansiri",
          "coordinate": {
            "lat": 27.5333,
            "lng": 93.8167
          }
        },
        {
          "code": "06",
          "name": "Daporijo",
          "fullCode": "AR06",
          "district": "Upper Subansiri",
          "coordinate": {
            "lat": 27.9833,
            "lng": 94.2167
          }
        },
        {
          "code": "07",
          "name": "Along",
          "fullCode": "AR07",
          "district": "West Siang",
          "coordinate": {
            "lat": 28.1667,
            "lng": 94.8
          }
        },
        {
          "code": "08",
          "name": "Pasighat",
          "fullCode": "AR08",
          "district": "East Siang",
          "coordinate": {
            "lat": 28.0667,
            "lng": 95.3333
          }
        },
        {
          "code": "09",
          "name": "Tezu",
          "fullCode": "AR09",
          "district": "Lohit",
          "coordinate": {
            "lat": 27.9167,
            "lng": 96.1667
          }
        },
        {
          "code": "10",
          "name": "Changlang",
          "fullCode": "AR10",
          "district": "Changlang",
          "coordinate": {
            "lat": 27.1333,
            "lng": 95.7333
          }
        },
        {
          "code": "11",
          "name": "Khonsa",
          "fullCode": "AR11",
          "district": "Tirap",
          "coordinate": {
            "lat": 27.0,
            "lng": 95.5167
          }
        },
        {
          "code": "12",
          "name": "Yingkiong",
          "fullCode": "AR12",
          "district": "Upper Siang",
          "coordinate": {
            "lat": 28.6333,
            "lng": 95.0167
          }
        },
        {
          "code": "13",
          "name": "Anini",
          "fullCode": "AR13",
          "district": "Dibang Valley",
          "coordinate": {
            "lat": 28.8,
            "lng": 95.8833
          }
        },
        {
          "code": "14",
          "name": "Roing",
          "fullCode": "AR14",
          "district": "Lower Dibang Valley",
          "coordinate": {
            "lat": 28.1333,
            "lng": 95.8333
          }
        },
        {
          "code": "15",
          "name": "Koloriang",
          "fullCode": "AR15",
          "district": "Kurung Kumey",
          "coordinate": {
            "lat": 27.8833,
            "lng": 93.3333
          }
        },
        {
          "code": "16",
          "name": "Namsai",
          "fullCode": "AR16",
          "district": "Namsai",
          "coordinate": {
            "lat": 27.6667,
            "lng": 95.85
          }
        },
        {
          "code": "17",
          "name": "Longding",
          "fullCode": "AR17",
          "district": "Longding",
          "coordinate": {
            "lat": 26.9,
            "lng": 95.6833
          }
        },
        {
          "code": "18",
          "name": "Mechuka",
          "fullCode": "AR18",
          "district": "Shi Yomi",
          "coordinate": {
            "lat": 28.6167,
            "lng": 94.1333
          }
        },
        {
          "code": "19",
          "name": "Basar",
          "fullCode": "AR19",
          "district": "Lepa Rada",
          "coordinate": {
            "lat": 27.9833,
            "lng": 94.65
          }
        },
        {
          "code": "20",
          "name": "Nacho",
          "fullCode": "AR20",
          "district": "Upper Subansiri",
          "coordinate": {
            "lat": 28.35,
            "lng": 94.1667
          }
        }
      ]
    },
    {
      "code": "AS",
      "name": "Assam",
      "type": "state",
      "capital": "Dispur",
      "coordinate": {
        "lat": 26.1445,
        "lng": 91.7362
      },
      "rtos": [
        {
          "code": "01",
          "name": "Guwahati",
          "fullCode": "AS01",
          "district": "Kamrup Metropolitan",
          "coordinate": {
            "lat": 26.1445,
            "lng": 91.7362
          }
        },
        {
          "code": "02",
          "name": "Nagaon",
          "fullCode": "AS02",
          "district": "Nagaon",
          "coordinate": {
            "lat": 26.35,
            "lng": 92.6833
          }
        },
        {
          "code": "03",
          "name": "Jorhat",
          "fullCode": "AS03",
          "district": "Jorhat",
          "coordinate": {
            "lat": 26.7509,
            "lng": 94.2037
          }
        },
        {
          "code": "04",
          "name": "Dibrugarh",
          "fullCode": "AS04",
          "district": "Dibrugarh",
          "coordinate": {
            "lat": 27.4728,
            "lng": 94.912
          }
        },
        {
          "code": "05",
          "name": "Tinsukia",
          "fullCode": "AS05",
          "district": "Tinsukia",
          "coordinate": {
            "lat": 27.4922,
            "lng": 95.3547
          }
        },
        {
          "code": "06",
          "name": "Silchar",
          "fullCode": "AS06",
          "district": "Cachar",
          "coordinate": {
            "lat": 24.8333,
            "lng": 92.7789
          }
        },
        {
          "code": "07",
          "name": "Tezpur",
          "fullCode": "AS07",
          "district": "Sonitpur",
          "coordinate": {
            "lat": 26.6338,
            "lng": 92.8
          }
        },
        {
          "code": "08",
          "name": "Goalpara",
          "fullCode": "AS08",
          "district": "Goalpara",
          "coordinate": {
            "lat": 26.1667,
            "lng": 90.625
          }
        },
        {
          "code": "09",
          "name": "Dhubri",
          "fullCode": "AS09",
          "district": "Dhubri",
          "coordinate": {
            "lat": 26.0167,
            "lng": 89.9833
          }
        },
        {
          "code": "10",
          "name": "Barpeta",
          "fullCode": "AS10",
          "district": "Barpeta",
          "coordinate": {
            "lat": 26.3167,
            "lng": 91.0
          }
        },
        {
          "code": "11",
          "name": "Nalbari",
          "fullCode": "AS11",
          "district": "Nalbari",
          "coordinate": {
            "lat": 26.4333,
            "lng": 91.4333
          }
        },
        {
          "code": "12",
          "name": "Sibsagar",
          "fullCode": "AS12",
          "district": "Sivasagar",
          "coordinate": {
            "lat": 26.9833,
            "lng": 94.6333
          }
        },
        {
          "code": "13",
          "name": "Lakhimpur",
          "fullCode": "AS13",
          "district": "Lakhimpur",
          "coordinate": {
            "lat": 27.2333,
            "lng": 94.1
          }
        },
        {
          "code": "14",
          "name": "Karimganj",
          "fullCode": "AS14",
          "district": "Karimganj",
          "coordinate": {
            "lat": 24.8667,
            "lng": 92.35
          }
        },
        {
          "code": "15",
          "name": "Hailakandi",
          "fullCode": "AS15",
          "district": "Hailakandi",
          "coordinate": {
            "lat": 24.6833,
            "lng": 92.5667
          }
        },
        {
          "code": "16",
          "name": "Darrang",
          "fullCode": "AS16",
          "district": "Darrang",
          "coordinate": {
            "lat": 26.5,
            "lng": 92.1667
          }
        },
        {
          "code": "17",
          "name": "Morigaon",
          "fullCode": "AS17",
          "district": "Morigaon",
          "coordinate": {
            "lat": 26.25,
            "lng": 92.3333
          }
        },
        {
          "code": "18",
          "name": "Kokrajhar",
          "fullCode": "AS18",
          "district": "Kokrajhar",
          "coordinate": {
            "lat": 26.4,
            "lng": 90.2667
          }
        },
        {
          "code": "19",
          "name": "Haflong",
          "fullCode": "AS19",
          "district": "Dima Hasao",
          "coordinate": {
            "lat": 25.1667,
            "lng": 93.0167
          }
        },
        {
          "code": "20",
          "name": "Diphu",
          "fullCode": "AS20",
          "district": "Karbi Anglong",
          "coordinate": {
            "lat": 25.8443,
            "lng": 93.731
          }
        },
        {
          "code": "21",
          "name": "Bongaigaon",
          "fullCode": "AS21",
          "district": "Bongaigaon",
          "coordinate": {
            "lat": 26.4833,
            "lng": 90.55
          }
        },
        {
          "code": "22",
          "name": "Kamrup",
          "fullCode": "AS22",
          "district": "Kamrup",
          "coordinate": {
            "lat": 26.2167,
            "lng": 91.5833
          }
        },
        {
          "code": "23",
          "name": "Golaghat",
          "fullCode": "AS23",
          "district": "Golaghat",
          "coordinate": {
            "lat": 26.5167,
            "lng": 93.9667
          }
        },
        {
          "code": "24",
          "name": "Dhemaji",
          "fullCode": "AS24",
          "district": "Dhemaji",
          "coordinate": {
            "lat": 27.4833,
            "lng": 94.5667
          }
        },
        {
          "code": "25",
          "name": "Udalguri",
          "fullCode": "AS25",
          "district": "Udalguri",
          "coordinate": {
            "lat": 26.75,
            "lng": 92.1
          }
        },
        {
          "code": "26",
          "name": "Chirang",
          "fullCode": "AS26",
          "district": "Chirang",
          "coordinate": {
            "lat": 26.5333,
            "lng": 90.4833
          }
        },
        {
          "code": "27",
          "name": "Baksa",
          "fullCode": "AS27",
          "district": "Baksa",
          "coordinate": {
            "lat": 26.7,
            "lng": 91.25
          }
        }
      ]
    },
    {
      "code": "BR",
      "name": "Bihar",
      "type": "state",
      "capital": "Patna",
      "coordinate": {
        "lat": 25.6093,
        "lng": 85.1376
      },
      "rtos": [
        {
          "code": "01",
          "name": "Patna",
          "fullCode": "BR01",
          "district": "Patna",
          "coordinate": {
            "lat": 25.6093,
            "lng": 85.1376
          }
        },
        {
          "code": "02",
          "name": "Gaya",
          "fullCode": "BR02",
          "district": "Gaya",
          "coordinate": {
            "lat": 24.7914,
            "lng": 84.9994
          }
        },
        {
          "code": "03",
          "name": "Arrah",
          "fullCode": "BR03",
          "district": "Bhojpur",
          "coordinate": {
            "lat": 25.55,
            "lng": 84.6667
          }
        },
        {
          "code": "04",
          "name": "Chapra",
          "fullCode": "BR04",
          "district": "Saran",
          "coordinate": {
            "lat": 25.7833,
            "lng": 84.75
          }
        },
        {
          "code": "05",
          "name": "Muzaffarpur",
          "fullCode": "BR05",
          "district": "Muzaffarpur",
          "coordinate": {
            "lat": 26.1209,
            "lng": 85.3647
          }
        },
        {
          "code": "06",
          "name": "Darbhanga",
          "fullCode": "BR06",
          "district": "Darbhanga",
          "coordinate": {
            "lat": 26.1542,
            "lng": 85.8918
          }
        },
        {
          "code": "07",
          "name": "Motihari",
          "fullCode": "BR07",
          "district": "East Champaran",
          "coordinate": {
            "lat": 26.65,
            "lng": 84.9167
          }
        },
        {
          "code": "08",
          "name": "Saharsa",
          "fullCode": "BR08",
          "district": "Saharsa",
          "coordinate": {
            "lat": 25.8833,
            "lng": 86.6
          }
        },
        {
          "code": "09",
          "name": "Purnea",
          "fullCode": "BR09",
          "district": "Purnia",
          "coordinate": {
            "lat": 25.7771,
            "lng": 87.4753
          }
        },
        {
          "code": "10",
          "name": "Bhagalpur",
          "fullCode": "BR10",
          "district": "Bhagalpur",
          "coordinate": {
            "lat": 25.2425,
            "lng": 86.9842
          }
        },
        {
          "code": "11",
          "name": "Munger",
          "fullCode": "BR11",
          "district": "Munger",
          "coordinate": {
            "lat": 25.3708,
            "lng": 86.4735
          }
        },
        {
          "code": "12",
          "name": "Bettiah",
          "fullCode": "BR12",
          "district": "West Champaran",
          "coordinate": {
            "lat": 26.8,
            "lng": 84.5
          }
        },
        {
          "code": "13",
          "name": "Sasaram",
          "fullCode": "BR13",
          "district": "Rohtas",
          "coordinate": {
            "lat": 24.95,
            "lng": 84.0333
          }
        },
        {
          "code": "14",
          "name": "Buxar",
          "fullCode": "BR14",
          "district": "Buxar",
          "coordinate": {
            "lat": 25.5667,
            "lng": 83.9833
          }
        },
        {
          "code": "15",
          "name": "Siwan",
          "fullCode": "BR15",
          "district": "Siwan",
          "coordinate": {
            "lat": 26.2167,
            "lng": 84.35
          }
        },
        {
          "code": "16",
          "name": "Gopalganj",
          "fullCode": "BR16",
          "district": "Gopalganj",
          "coordinate": {
            "lat": 26.4667,
            "lng": 84.4333
          }
        },
        {
          "code": "17",
          "name": "Hajipur",
          "fullCode": "BR17",
          "district": "Vaishali",
          "coordinate": {
            "lat": 25.6833,
            "lng": 85.2167
          }
        },
        {
          "code": "18",
          "name": "Sitamarhi",
          "fullCode": "BR18",
          "district": "Sitamarhi",
          "coordinate": {
            "lat": 26.5833,
            "lng": 85.4833
          }
        },
        {
          "code": "19",
          "name": "Madhubani",
          "fullCode": "BR19",
          "district": "Madhubani",
          "coordinate": {
            "lat": 26.35,
            "lng": 86.0833
          }
        },
        {
          "code": "20",
          "name": "Samastipur",
          "fullCode": "BR20",
          "district": "Samastipur",
          "coordinate": {
            "lat": 25.8667,
            "lng": 85.7833
          }
        },
        {
          "code": "21",
          "name": "Begusarai",
          "fullCode": "BR21",
          "district": "Begusarai",
          "coordinate": {
            "lat": 25.4167,
            "lng": 86.1333
          }
        },
        {
          "code": "22",
          "name": "Madhepura",
          "fullCode": "BR22",
          "district": "Madhepura",
          "coordinate": {
            "lat": 25.9167,
            "lng": 86.7833
          }
        },
        {
          "code": "23",
          "name": "Supaul",
          "fullCode": "BR23",
          "district": "Supaul",
          "coordinate": {
            "lat": 26.1167,
            "lng": 86.5833
          }
        },
        {
          "code": "24",
          "name": "Katihar",
          "fullCode": "BR24",
          "district": "Katihar",
          "coordinate": {
            "lat": 25.55,
            "lng": 87.5667
          }
        },
        {
          "code": "25",
          "name": "Kishanganj",
          "fullCode": "BR25",
          "district": "Kishanganj",
          "coordinate": {
            "lat": 26.1,
            "lng": 87.95
          }
        },
        {
          "code": "26",
          "name": "Araria",
          "fullCode": "BR26",
          "district": "Araria",
          "coordinate": {
            "lat": 26.15,
            "lng": 87.5167
          }
        },
        {
          "code": "27",
          "name": "Banka",
          "fullCode": "BR27",
          "district": "Banka",
          "coordinate": {
            "lat": 24.8833,
            "lng": 86.9167
          }
        },
        {
          "code": "28",
          "name": "Jamui",
          "fullCode": "BR28",
          "district": "Jamui",
          "coordinate": {
            "lat": 24.9333,
            "lng": 86.2167
          }
        },
        {
          "code": "29",
          "name": "Lakhisarai",
          "fullCode": "BR29",
          "district": "Lakhisarai",
          "coordinate": {
            "lat": 25.1667,
            "lng": 86.0833
          }
        },
        {
          "code": "30",
          "name": "Sheikhpura",
          "fullCode": "BR30",
          "district": "Sheikhpura",
          "coordinate": {
            "lat": 25.15,
            "lng": 85.8333
          }
        },
        {
          "code": "31",
          "name": "Nalanda",
          "fullCode": "BR31",
          "district": "Nalanda",
          "coordinate": {
            "lat": 25.1333,
            "lng": 85.45
          }
        },
        {
          "code": "32",
          "name": "Nawada",
          "fullCode": "BR32",
          "district": "Nawada",
          "coordinate": {
            "lat": 24.8833,
            "lng": 85.5333
          }
        },
        {
          "code": "33",
          "name": "Aurangabad",
          "fullCode": "BR33",
          "district": "Aurangabad",
          "coordinate": {
            "lat": 24.75,
            "lng": 84.3833
          }
        },
        {
          "code": "34",
          "name": "Jehanabad",
          "fullCode": "BR34",
          "district": "Jehanabad",
          "coordinate": {
            "lat": 25.2167,
            "lng": 84.9833
          }
        },
        {
          "code": "35",
          "name": "Kaimur",
          "fullCode": "BR35",
          "district": "Kaimur",
          "coordinate": {
            "lat": 25.05,
            "lng": 83.5833
          }
        },
        {
          "code": "36",
          "name": "Khagaria",
          "fullCode": "BR36",
          "district": "Khagaria",
          "coordinate": {
            "lat": 25.5,
            "lng": 86.4833
          }
        },
        {
          "code": "37",
          "name": "Sheohar",
          "fullCode": "BR37",
          "district": "Sheohar",
          "coordinate": {
            "lat": 26.5167,
            "lng": 85.2833
          }
        },
        {
          "code": "38",
          "name": "Patna (Additional)",
          "fullCode": "BR38",
          "district": "Patna",
          "coordinate": {
            "lat": 25.62,
            "lng": 85.15
          }
        }
      ]
    },
    {
      "code": "CG",
      "name": "Chhattisgarh",
      "type": "state",
      "capital": "Raipur",
      "coordinate": {
        "lat": 21.2514,
        "lng": 81.6296
      },
      "rtos": [
        {
          "code": "04",
          "name": "Raipur",
          "fullCode": "CG04",
          "district": "Raipur",
          "coordinate": {
            "lat": 21.2514,
            "lng": 81.6296
          }
        },
        {
          "code": "05",
          "name": "Durg",
          "fullCode": "CG05",
          "district": "Durg",
          "coordinate": {
            "lat": 21.1904,
            "lng": 81.2849
          }
        },
        {
          "code": "06",
          "name": "Rajnandgaon",
          "fullCode": "CG06",
          "district": "Rajnandgaon",
          "coordinate": {
            "lat": 21.0972,
            "lng": 81.0289
          }
        },
        {
          "code": "07",
          "name": "Bilaspur",
          "fullCode": "CG07",
          "district": "Bilaspur",
          "coordinate": {
            "lat": 22.0797,
            "lng": 82.1409
          }
        },
        {
          "code": "08",
          "name": "Korba",
          "fullCode": "CG08",
          "district": "Korba",
          "coordinate": {
            "lat": 22.3595,
            "lng": 82.7501
          }
        },
        {
          "code": "09",
          "name": "Janjgir-Champa",
          "fullCode": "CG09",
          "district": "Janjgir-Champa",
          "coordinate": {
            "lat": 22.0167,
            "lng": 82.5833
          }
        },
        {
          "code": "10",
          "name": "Jagdalpur",
          "fullCode": "CG10",
          "district": "Bastar",
          "coordinate": {
            "lat": 19.0833,
            "lng": 82.0333
          }
        },
        {
          "code": "11",
          "name": "Dantewada",
          "fullCode": "CG11",
          "district": "Dantewada",
          "coordinate": {
            "lat": 18.8833,
            "lng": 81.35
          }
        },
        {
          "code": "12",
          "name": "Kanker",
          "fullCode": "CG12",
          "district": "Kanker",
          "coordinate": {
            "lat": 20.2667,
            "lng": 81.4833
          }
        },
        {
          "code": "13",
          "name": "Raigarh",
          "fullCode": "CG13",
          "district": "Raigarh",
          "coordinate": {
            "lat": 21.8974,
            "lng": 83.395
          }
        },
        {
          "code": "14",
          "name": "Jashpur",
          "fullCode": "CG14",
          "district": "Jashpur",
          "coordinate": {
            "lat": 22.8833,
            "lng": 83.85
          }
        },
        {
          "code": "15",
          "name": "Ambikapur",
          "fullCode": "CG15",
          "district": "Surguja",
          "coordinate": {
            "lat": 23.1167,
            "lng": 83.2
          }
        },
        {
          "code": "16",
          "name": "Korea",
          "fullCode": "CG16",
          "district": "Korea",
          "coordinate": {
            "lat": 23.2,
            "lng": 82.5333
          }
        },
        {
          "code": "17",
          "name": "Mahasamund",
          "fullCode": "CG17",
          "district": "Mahasamund",
          "coordinate": {
            "lat": 21.1167,
            "lng": 82.1
          }
        },
        {
          "code": "18",
          "name": "Dhamtari",
          "fullCode": "CG18",
          "district": "Dhamtari",
          "coordinate": {
            "lat": 20.7,
            "lng": 81.55
          }
        },
        {
          "code": "19",
          "name": "Kawardha",
          "fullCode": "CG19",
          "district": "Kabirdham",
          "coordinate": {
            "lat": 22.0167,
            "lng": 81.25
          }
        },
        {
          "code": "20",
          "name": "Gariyaband",
          "fullCode": "CG20",
          "district": "Gariyaband",
          "coordinate": {
            "lat": 20.6333,
            "lng": 82.0667
          }
        },
        {
          "code": "21",
          "name": "Balod",
          "fullCode": "CG21",
          "district": "Balod",
          "coordinate": {
            "lat": 20.7333,
            "lng": 81.2
          }
        },
        {
          "code": "22",
          "name": "Bemetara",
          "fullCode": "CG22",
          "district": "Bemetara",
          "coordinate": {
            "lat": 21.7167,
            "lng": 81.5333
          }
        },
        {
          "code": "23",
          "name": "Baloda Bazar",
          "fullCode": "CG23",
          "district": "Baloda Bazar",
          "coordinate": {
            "lat": 21.65,
            "lng": 82.15
          }
        },
        {
          "code": "24",
          "name": "Mungeli",
          "fullCode": "CG24",
          "district": "Mungeli",
          "coordinate": {
            "lat": 22.0667,
            "lng": 81.6833
          }
        },
        {
          "code": "25",
          "name": "Surajpur",
          "fullCode": "CG25",
          "district": "Surajpur",
          "coordinate": {
            "lat": 23.2167,
            "lng": 82.8667
          }
        },
        {
          "code": "26",
          "name": "Balrampur",
          "fullCode": "CG26",
          "district": "Balrampur",
          "coordinate": {
            "lat": 23.6333,
            "lng": 83.6
          }
        },
        {
          "code": "27",
          "name": "Bijapur",
          "fullCode": "CG27",
          "district": "Bijapur",
          "coordinate": {
            "lat": 18.8333,
            "lng": 80.7833
          }
        },
        {
          "code": "28",
          "name": "Narayanpur",
          "fullCode": "CG28",
          "district": "Narayanpur",
          "coordinate": {
            "lat": 19.7167,
            "lng": 81.25
          }
        },
        {
          "code": "29",
          "name": "Sukma",
          "fullCode": "CG29",
          "district": "Sukma",
          "coordinate": {
            "lat": 18.3833,
            "lng": 81.65
          }
        },
        {
          "code": "30",
          "name": "Kondagaon",
          "fullCode": "CG30",
          "district": "Kondagaon",
          "coordinate": {
            "lat": 19.5833,
            "lng": 81.6667
          }
        }
      ]
    },
    {
      "code": "CH",
      "name": "Chandigarh",
      "type": "ut",
      "capital": "Chandigarh",
      "coordinate": {
        "lat": 30.7333,
        "lng": 76.7794
      },
      "rtos": [
        {
          "code": "01",
          "name": "Chandigarh",
          "fullCode": "CH01",
          "district": "Chandigarh",
          "coordinate": {
            "lat": 30.7333,
            "lng": 76.7794
          }
        },
        {
          "code": "02",
          "name": "Chandigarh (Additional)",
          "fullCode": "CH02",
          "district": "Chandigarh",
          "coordinate": {
            "lat": 30.7333,
            "lng": 76.7794
          }
        },
        {
          "code": "03",
          "name": "Chandigarh (Sub-Office)",
          "fullCode": "CH03",
          "district": "Chandigarh",
          "coordinate": {
            "lat": 30.7333,
            "lng": 76.7794
          }
        },
        {
          "code": "04",
          "name": "Chandigarh (Industrial Area)",
          "fullCode": "CH04",
          "district": "Chandigarh",
          "coordinate": {
            "lat": 30.7333,
            "lng": 76.7794
          }
        }
      ]
    },
    {
      "code": "DD",
      "name": "Dadra and Nagar Haveli and Daman and Diu",
      "type": "ut",
      "capital": "Daman",
      "coordinate": {
        "lat": 20.3974,
        "lng": 72.8328
      },
      "rtos": [
        {
          "code": "01",
          "name": "Silvassa",
          "fullCode": "DD01",
          "district": "Dadra and Nagar Haveli",
          "coordinate": {
            "lat": 20.2766,
            "lng": 73.015
          }
        },
        {
          "code": "02",
          "name": "Daman",
          "fullCode": "DD02",
          "district": "Daman",
          "coordinate": {
            "lat": 20.3974,
            "lng": 72.8328
          }
        },
        {
          "code": "03",
          "name": "Diu",
          "fullCode": "DD03",
          "district": "Diu",
          "coordinate": {
            "lat": 20.7141,
            "lng": 70.9876
          }
        }
      ]
    },
    {
      "code": "DL",
      "name": "Delhi",
      "type": "ut",
      "capital": "New Delhi",
      "coordinate": {
        "lat": 28.6139,
        "lng": 77.209
      },
      "rtos": [
        {
          "code": "01",
          "name": "Sarai Kale Khan",
          "fullCode": "DL01",
          "district": "South East Delhi",
          "coordinate": {
            "lat": 28.5885,
            "lng": 77.2543
          }
        },
        {
          "code": "02",
          "name": "Raja Garden",
          "fullCode": "DL02",
          "district": "West Delhi",
          "coordinate": {
            "lat": 28.6519,
            "lng": 77.1167
          }
        },
        {
          "code": "03",
          "name": "Sheikh Sarai",
          "fullCode": "DL03",
          "district": "South Delhi",
          "coordinate": {
            "lat": 28.5244,
            "lng": 77.209
          }
        },
        {
          "code": "04",
          "name": "IP Estate",
          "fullCode": "DL04",
          "district": "Central Delhi",
          "coordinate": {
            "lat": 28.6297,
            "lng": 77.2453
          }
        },
        {
          "code": "05",
          "name": "Loni Road",
          "fullCode": "DL05",
          "district": "North East Delhi",
          "coordinate": {
            "lat": 28.7041,
            "lng": 77.2838
          }
        },
        {
          "code": "06",
          "name": "Burari",
          "fullCode": "DL06",
          "district": "North Delhi",
          "coordinate": {
            "lat": 28.757,
            "lng": 77.1951
          }
        },
        {
          "code": "07",
          "name": "Rohini",
          "fullCode": "DL07",
          "district": "North West Delhi",
          "coordinate": {
            "lat": 28.7495,
            "lng": 77.0565
          }
        },
        {
          "code": "08",
          "name": "Janakpuri",
          "fullCode": "DL08",
          "district": "West Delhi",
          "coordinate": {
            "lat": 28.6219,
            "lng": 77.0816
          }
        },
        {
          "code": "09",
          "name": "Dwarka",
          "fullCode": "DL09",
          "district": "South West Delhi",
          "coordinate": {
            "lat": 28.5921,
            "lng": 77.046
          }
        },
        {
          "code": "10",
          "name": "Mayur Vihar",
          "fullCode": "DL10",
          "district": "East Delhi",
          "coordinate": {
            "lat": 28.6139,
            "lng": 77.295
          }
        },
        {
          "code": "11",
          "name": "Shahdara",
          "fullCode": "DL11",
          "district": "Shahdara",
          "coordinate": {
            "lat": 28.6702,
            "lng": 77.2889
          }
        },
        {
          "code": "12",
          "name": "Vasant Vihar",
          "fullCode": "DL12",
          "district": "South West Delhi",
          "coordinate": {
            "lat": 28.56,
            "lng": 77.1577
          }
        },
        {
          "code": "13",
          "name": "Surajmal Vihar",
          "fullCode": "DL13",
          "district": "East Delhi",
          "coordinate": {
            "lat": 28.65,
            "lng": 77.3
          }
        }
      ]
    },
    {
      "code": "GA",
      "name": "Goa",
      "type": "state",
      "capital": "Panaji",
      "coordinate": {
        "lat": 15.4909,
        "lng": 73.8278
      },
      "rtos": [
        {
          "code": "01",
          "name": "Panaji",
          "fullCode": "GA01",
          "district": "North Goa",
          "coordinate": {
            "lat": 15.4909,
            "lng": 73.8278
          }
        },
        {
          "code": "02",
          "name": "Margao",
          "fullCode": "GA02",
          "district": "South Goa",
          "coordinate": {
            "lat": 15.2832,
            "lng": 73.9862
          }
        },
        {
          "code": "03",
          "name": "Mapusa",
          "fullCode": "GA03",
          "district": "North Goa",
          "coordinate": {
            "lat": 15.591,
            "lng": 73.8083
          }
        },
        {
          "code": "04",
          "name": "Ponda",
          "fullCode": "GA04",
          "district": "North Goa",
          "coordinate": {
            "lat": 15.4,
            "lng": 74.0167
          }
        },
        {
          "code": "05",
          "name": "Bicholim",
          "fullCode": "GA05",
          "district": "North Goa",
          "coordinate": {
            "lat": 15.59,
            "lng": 73.95
          }
        },
        {
          "code": "06",
          "name": "Vasco da Gama",
          "fullCode": "GA06",
          "district": "South Goa",
          "coordinate": {
            "lat": 15.3982,
            "lng": 73.8113
          }
        },
        {
          "code": "07",
          "name": "Curchorem",
          "fullCode": "GA07",
          "district": "South Goa",
          "coordinate": {
            "lat": 15.2631,
            "lng": 74.1083
          }
        },
        {
          "code": "08",
          "name": "Canacona",
          "fullCode": "GA08",
          "district": "South Goa",
          "coordinate": {
            "lat": 15.0,
            "lng": 74.05
          }
        },
        {
          "code": "09",
          "name": "Pernem",
          "fullCode": "GA09",
          "district": "North Goa",
          "coordinate": {
            "lat": 15.723,
            "lng": 73.7958
          }
        },
        {
          "code": "10",
          "name": "Quepem",
          "fullCode": "GA10",
          "district": "South Goa",
          "coordinate": {
            "lat": 15.2167,
            "lng": 74.0667
          }
        },
        {
          "code": "11",
          "name": "Sanguem",
          "fullCode": "GA11",
          "district": "South Goa",
          "coordinate": {
            "lat": 15.2333,
            "lng": 74.15
          }
        },
        {
          "code": "12",
          "name": "Dharbandora",
          "fullCode": "GA12",
          "district": "South Goa",
          "coordinate": {
            "lat": 15.2667,
            "lng": 74.2
          }
        }
      ]
    },
    {
      "code": "GJ",
      "name": "Gujarat",
      "type": "state",
      "capital": "Gandhinagar",
      "coordinate": {
        "lat": 23.2156,
        "lng": 72.6369
      },
      "rtos": [
        {
          "code": "01",
          "name": "Ahmedabad",
          "fullCode": "GJ01",
          "district": "Ahmedabad",
          "coordinate": {
            "lat": 23.0225,
            "lng": 72.5714
          }
        },
        {
          "code": "02",
          "name": "Mehsana",
          "fullCode": "GJ02",
          "district": "Mehsana",
          "coordinate": {
            "lat": 23.588,
            "lng": 72.3693
          }
        },
        {
          "code": "03",
          "name": "Rajkot",
          "fullCode": "GJ03",
          "district": "Rajkot",
          "coordinate": {
            "lat": 22.3039,
            "lng": 70.8022
          }
        },
        {
          "code": "04",
          "name": "Bhavnagar",
          "fullCode": "GJ04",
          "district": "Bhavnagar",
          "coordinate": {
            "lat": 21.7645,
            "lng": 72.1519
          }
        },
        {
          "code": "05",
          "name": "Surat",
          "fullCode": "GJ05",
          "district": "Surat",
          "coordinate": {
            "lat": 21.1702,
            "lng": 72.8311
          }
        },
        {
          "code": "06",
          "name": "Vadodara",
          "fullCode": "GJ06",
          "district": "Vadodara",
          "coordinate": {
            "lat": 22.3072,
            "lng": 73.1812
          }
        },
        {
          "code": "07",
          "name": "Surendranagar",
          "fullCode": "GJ07",
          "district": "Surendranagar",
          "coordinate": {
            "lat": 22.7281,
            "lng": 71.6531
          }
        },
        {
          "code": "08",
          "name": "Jamnagar",
          "fullCode": "GJ08",
          "district": "Jamnagar",
          "coordinate": {
            "lat": 22.4707,
            "lng": 70.0577
          }
        },
        {
          "code": "09",
          "name": "Kutch",
          "fullCode": "GJ09",
          "district": "Kutch",
          "coordinate": {
            "lat": 23.7337,
            "lng": 69.8597
          }
        },
        {
          "code": "10",
          "name": "Junagadh",
          "fullCode": "GJ10",
          "district": "Junagadh",
          "coordinate": {
            "lat": 21.5222,
            "lng": 70.4579
          }
        },
        {
          "code": "11",
          "name": "Amreli",
          "fullCode": "GJ11",
          "district": "Amreli",
          "coordinate": {
            "lat": 21.6012,
            "lng": 71.2166
          }
        },
        {
          "code": "12",
          "name": "Banaskantha",
          "fullCode": "GJ12",
          "district": "Banaskantha",
          "coordinate": {
            "lat": 24.1733,
            "lng": 72.4378
          }
        },
        {
          "code": "13",
          "name": "Sabarkantha",
          "fullCode": "GJ13",
          "district": "Sabarkantha",
          "coordinate": {
            "lat": 23.6247,
            "lng": 73.0068
          }
        },
        {
          "code": "14",
          "name": "Gandhinagar",
          "fullCode": "GJ14",
          "district": "Gandhinagar",
          "coordinate": {
            "lat": 23.2156,
            "lng": 72.6369
          }
        },
        {
          "code": "15",
          "name": "Bharuch",
          "fullCode": "GJ15",
          "district": "Bharuch",
          "coordinate": {
            "lat": 21.7051,
            "lng": 72.9959
          }
        },
        {
          "code": "16",
          "name": "Panchmahal",
          "fullCode": "GJ16",
          "district": "Panchmahal",
          "coordinate": {
            "lat": 22.7724,
            "lng": 73.6049
          }
        },
        {
          "code": "17",
          "name": "Valsad",
          "fullCode": "GJ17",
          "district": "Valsad",
          "coordinate": {
            "lat": 20.5992,
            "lng": 72.9342
          }
        },
        {
          "code": "18",
          "name": "Ahmedabad (West)",
          "fullCode": "GJ18",
          "district": "Ahmedabad",
          "coordinate": {
            "lat": 23.0225,
            "lng": 72.5714
          }
        },
        {
          "code": "19",
          "name": "Anand",
          "fullCode": "GJ19",
          "district": "Anand",
          "coordinate": {
            "lat": 22.5645,
            "lng": 72.9289
          }
        },
        {
          "code": "20",
          "name": "Kheda",
          "fullCode": "GJ20",
          "district": "Kheda",
          "coordinate": {
            "lat": 22.75,
            "lng": 72.6833
          }
        },
        {
          "code": "21",
          "name": "Navsari",
          "fullCode": "GJ21",
          "district": "Navsari",
          "coordinate": {
            "lat": 20.9467,
            "lng": 72.952
          }
        },
        {
          "code": "22",
          "name": "Dangs",
          "fullCode": "GJ22",
          "district": "Dangs",
          "coordinate": {
            "lat": 20.7533,
            "lng": 73.7017
          }
        },
        {
          "code": "23",
          "name": "Narmada",
          "fullCode": "GJ23",
          "district": "Narmada",
          "coordinate": {
            "lat": 21.8774,
            "lng": 73.4981
          }
        },
        {
          "code": "24",
          "name": "Porbandar",
          "fullCode": "GJ24",
          "district": "Porbandar",
          "coordinate": {
            "lat": 21.6417,
            "lng": 69.6293
          }
        },
        {
          "code": "25",
          "name": "Dahod",
          "fullCode": "GJ25",
          "district": "Dahod",
          "coordinate": {
            "lat": 22.837,
            "lng": 74.2544
          }
        },
        {
          "code": "26",
          "name": "Surat (Additional)",
          "fullCode": "GJ26",
          "district": "Surat",
          "coordinate": {
            "lat": 21.1702,
            "lng": 72.8311
          }
        },
        {
          "code": "27",
          "name": "Ahmedabad (Additional)",
          "fullCode": "GJ27",
          "district": "Ahmedabad",
          "coordinate": {
            "lat": 23.0225,
            "lng": 72.5714
          }
        },
        {
          "code": "28",
          "name": "Tapi",
          "fullCode": "GJ28",
          "district": "Tapi",
          "coordinate": {
            "lat": 21.1167,
            "lng": 73.4
          }
        },
        {
          "code": "29",
          "name": "Rajkot (Additional)",
          "fullCode": "GJ29",
          "district": "Rajkot",
          "coordinate": {
            "lat": 22.3039,
            "lng": 70.8022
          }
        },
        {
          "code": "30",
          "name": "Vadodara (Additional)",
          "fullCode": "GJ30",
          "district": "Vadodara",
          "coordinate": {
            "lat": 22.3072,
            "lng": 73.1812
          }
        },
        {
          "code": "31",
          "name": "Bhuj",
          "fullCode": "GJ31",
          "district": "Kutch",
          "coordinate": {
            "lat": 23.2419,
            "lng": 69.6669
          }
        },
        {
          "code": "32",
          "name": "Morbi",
          "fullCode": "GJ32",
          "district": "Morbi",
          "coordinate": {
            "lat": 22.8173,
            "lng": 70.837
          }
        },
        {
          "code": "33",
          "name": "Botad",
          "fullCode": "GJ33",
          "district": "Botad",
          "coordinate": {
            "lat": 22.1694,
            "lng": 71.6686
          }
        },
        {
          "code": "34",
          "name": "Aravalli",
          "fullCode": "GJ34",
          "district": "Aravalli",
          "coordinate": {
            "lat": 23.5333,
            "lng": 73.3
          }
        },
        {
          "code": "35",
          "name": "Gir Somnath",
          "fullCode": "GJ35",
          "district": "Gir Somnath",
          "coordinate": {
            "lat": 20.888,
            "lng": 70.4013
          }
        },
        {
          "code": "36",
          "name": "Chhota Udepur",
          "fullCode": "GJ36",
          "district": "Chhota Udepur",
          "coordinate": {
            "lat": 22.3033,
            "lng": 74.0167
          }
        },
        {
          "code": "37",
          "name": "Mahisagar",
          "fullCode": "GJ37",
          "district": "Mahisagar",
          "coordinate": {
            "lat": 23.0667,
            "lng": 73.6333
          }
        },
        {
          "code": "38",
          "name": "Devbhoomi Dwarka",
          "fullCode": "GJ38",
          "district": "Devbhoomi Dwarka",
          "coordinate": {
            "lat": 22.2,
            "lng": 69.0667
          }
        }
      ]
    },
    {
      "code": "HP",
      "name": "Himachal Pradesh",
      "type": "state",
      "capital": "Shimla",
      "coordinate": {
        "lat": 31.1048,
        "lng": 77.1734
      },
      "rtos": [
        {
          "code": "01",
          "name": "Shimla",
          "fullCode": "HP01",
          "district": "Shimla",
          "coordinate": {
            "lat": 31.1048,
            "lng": 77.1734
          }
        },
        {
          "code": "02",
          "name": "Mandi",
          "fullCode": "HP02",
          "district": "Mandi",
          "coordinate": {
            "lat": 31.717,
            "lng": 76.9314
          }
        },
        {
          "code": "03",
          "name": "Kullu",
          "fullCode": "HP03",
          "district": "Kullu",
          "coordinate": {
            "lat": 31.9579,
            "lng": 77.1095
          }
        },
        {
          "code": "04",
          "name": "Kangra",
          "fullCode": "HP04",
          "district": "Kangra",
          "coordinate": {
            "lat": 32.0998,
            "lng": 76.2691
          }
        },
        {
          "code": "05",
          "name": "Bilaspur",
          "fullCode": "HP05",
          "district": "Bilaspur",
          "coordinate": {
            "lat": 31.3378,
            "lng": 76.7551
          }
        },
        {
          "code": "06",
          "name": "Hamirpur",
          "fullCode": "HP06",
          "district": "Hamirpur",
          "coordinate": {
            "lat": 31.6862,
            "lng": 76.5214
          }
        },
        {
          "code": "07",
          "name": "Una",
          "fullCode": "HP07",
          "district": "Una",
          "coordinate": {
            "lat": 31.4685,
            "lng": 76.2708
          }
        },
        {
          "code": "08",
          "name": "Chamba",
          "fullCode": "HP08",
          "district": "Chamba",
          "coordinate": {
            "lat": 32.5534,
            "lng": 76.1258
          }
        },
        {
          "code": "09",
          "name": "Solan",
          "fullCode": "HP09",
          "district": "Solan",
          "coordinate": {
            "lat": 30.9045,
            "lng": 77.0967
          }
        },
        {
          "code": "10",
          "name": "Sirmaur",
          "fullCode": "HP10",
          "district": "Sirmaur",
          "coordinate": {
            "lat": 30.5736,
            "lng": 77.2923
          }
        },
        {
          "code": "11",
          "name": "Kinnaur",
          "fullCode": "HP11",
          "district": "Kinnaur",
          "coordinate": {
            "lat": 31.5833,
            "lng": 78.4667
          }
        },
        {
          "code": "12",
          "name": "Lahaul Spiti",
          "fullCode": "HP12",
          "district": "Lahaul and Spiti",
          "coordinate": {
            "lat": 32.5833,
            "lng": 76.9667
          }
        },
        {
          "code": "13",
          "name": "Dharamshala",
          "fullCode": "HP13",
          "district": "Kangra",
          "coordinate": {
            "lat": 32.219,
            "lng": 76.3234
          }
        },
        {
          "code": "14",
          "name": "Palampur",
          "fullCode": "HP14",
          "district": "Kangra",
          "coordinate": {
            "lat": 32.1109,
            "lng": 76.5363
          }
        },
        {
          "code": "15",
          "name": "Dehra",
          "fullCode": "HP15",
          "district": "Kangra",
          "coordinate": {
            "lat": 31.8833,
            "lng": 76.2167
          }
        },
        {
          "code": "16",
          "name": "Nurpur",
          "fullCode": "HP16",
          "district": "Kangra",
          "coordinate": {
            "lat": 32.3,
            "lng": 75.8833
          }
        },
        {
          "code": "17",
          "name": "Nahan",
          "fullCode": "HP17",
          "district": "Sirmaur",
          "coordinate": {
            "lat": 30.56,
            "lng": 77.29
          }
        },
        {
          "code": "18",
          "name": "Rampur",
          "fullCode": "HP18",
          "district": "Shimla",
          "coordinate": {
            "lat": 31.45,
            "lng": 77.6333
          }
        },
        {
          "code": "19",
          "name": "Theog",
          "fullCode": "HP19",
          "district": "Shimla",
          "coordinate": {
            "lat": 31.1167,
            "lng": 77.35
          }
        },
        {
          "code": "20",
          "name": "Rohru",
          "fullCode": "HP20",
          "district": "Shimla",
          "coordinate": {
            "lat": 31.2,
            "lng": 77.75
          }
        },
        {
          "code": "21",
          "name": "Sundernagar",
          "fullCode": "HP21",
          "district": "Mandi",
          "coordinate": {
            "lat": 31.5333,
            "lng": 76.8833
          }
        },
        {
          "code": "22",
          "name": "Jogindernagar",
          "fullCode": "HP22",
          "district": "Mandi",
          "coordinate": {
            "lat": 31.9833,
            "lng": 76.7833
          }
        },
        {
          "code": "23",
          "name": "Manali",
          "fullCode": "HP23",
          "district": "Kullu",
          "coordinate": {
            "lat": 32.2396,
            "lng": 77.1887
          }
        },
        {
          "code": "24",
          "name": "Nalagarh",
          "fullCode": "HP24",
          "district": "Solan",
          "coordinate": {
            "lat": 31.0333,
            "lng": 76.7167
          }
        },
        {
          "code": "25",
          "name": "Baddi",
          "fullCode": "HP25",
          "district": "Solan",
          "coordinate": {
            "lat": 30.9579,
            "lng": 76.7908
          }
        },
        {
          "code": "26",
          "name": "Amb",
          "fullCode": "HP26",
          "district": "Una",
          "coordinate": {
            "lat": 31.6833,
            "lng": 76.1167
          }
        },
        {
          "code": "27",
          "name": "Arki",
          "fullCode": "HP27",
          "district": "Solan",
          "coordinate": {
            "lat": 31.15,
            "lng": 76.9667
          }
        },
        {
          "code": "28",
          "name": "Dalhousie",
          "fullCode": "HP28",
          "district": "Chamba",
          "coordinate": {
            "lat": 32.5333,
            "lng": 75.9667
          }
        },
        {
          "code": "29",
          "name": "Recong Peo",
          "fullCode": "HP29",
          "district": "Kinnaur",
          "coordinate": {
            "lat": 31.54,
            "lng": 78.27
          }
        },
        {
          "code": "30",
          "name": "Keylong",
          "fullCode": "HP30",
          "district": "Lahaul and Spiti",
          "coordinate": {
            "lat": 32.572,
            "lng": 77.04
          }
        }
      ]
    },
    {
      "code": "HR",
      "name": "Haryana",
      "type": "state",
      "capital": "Chandigarh",
      "coordinate": {
        "lat": 30.7333,
        "lng": 76.7794
      },
      "rtos": [
        {
          "code": "01",
          "name": "Ambala",
          "fullCode": "HR01",
          "district": "Ambala",
          "coordinate": {
            "lat": 30.3782,
            "lng": 76.7767
          }
        },
        {
          "code": "02",
          "name": "Karnal",
          "fullCode": "HR02",
          "district": "Karnal",
          "coordinate": {
            "lat": 29.6857,
            "lng": 76.9905
          }
        },
        {
          "code": "03",
          "name": "Kurukshetra",
          "fullCode": "HR03",
          "district": "Kurukshetra",
          "coordinate": {
            "lat": 29.9695,
            "lng": 76.8783
          }
        },
        {
          "code": "04",
          "name": "Yamunanagar",
          "fullCode": "HR04",
          "district": "Yamunanagar",
          "coordinate": {
            "lat": 30.129,
            "lng": 77.2674
          }
        },
        {
          "code": "05",
          "name": "Panchkula",
          "fullCode": "HR05",
          "district": "Panchkula",
          "coordinate": {
            "lat": 30.6942,
            "lng": 76.8606
          }
        },
        {
          "code": "06",
          "name": "Rohtak",
          "fullCode": "HR06",
          "district": "Rohtak",
          "coordinate": {
            "lat": 28.8955,
            "lng": 76.6066
          }
        },
        {
          "code": "07",
          "name": "Sonipat",
          "fullCode": "HR07",
          "district": "Sonipat",
          "coordinate": {
            "lat": 28.9931,
            "lng": 77.0151
          }
        },
        {
          "code": "08",
          "name": "Faridabad",
          "fullCode": "HR08",
          "district": "Faridabad",
          "coordinate": {
            "lat": 28.4089,
            "lng": 77.3178
          }
        },
        {
          "code": "09",
          "name": "Gurgaon",
          "fullCode": "HR09",
          "district": "Gurgaon",
          "coordinate": {
            "lat": 28.4595,
            "lng": 77.0266
          }
        },
        {
          "code": "10",
          "name": "Hisar",
          "fullCode": "HR10",
          "district": "Hisar",
          "coordinate": {
            "lat": 29.1492,
            "lng": 75.7217
          }
        },
        {
          "code": "11",
          "name": "Bhiwani",
          "fullCode": "HR11",
          "district": "Bhiwani",
          "coordinate": {
            "lat": 28.793,
            "lng": 76.1328
          }
        },
        {
          "code": "12",
          "name": "Sirsa",
          "fullCode": "HR12",
          "district": "Sirsa",
          "coordinate": {
            "lat": 29.5349,
            "lng": 75.0289
          }
        },
        {
          "code": "13",
          "name": "Jind",
          "fullCode": "HR13",
          "district": "Jind",
          "coordinate": {
            "lat": 29.3162,
            "lng": 76.3144
          }
        },
        {
          "code": "14",
          "name": "Panipat",
          "fullCode": "HR14",
          "district": "Panipat",
          "coordinate": {
            "lat": 29.3909,
            "lng": 76.9635
          }
        },
        {
          "code": "15",
          "name": "Rewari",
          "fullCode": "HR15",
          "district": "Rewari",
          "coordinate": {
            "lat": 28.197,
            "lng": 76.6194
          }
        },
        {
          "code": "16",
          "name": "Mahendragarh",
          "fullCode": "HR16",
          "district": "Mahendragarh",
          "coordinate": {
            "lat": 28.2824,
            "lng": 76.1518
          }
        },
        {
          "code": "17",
          "name": "Kaithal",
          "fullCode": "HR17",
          "district": "Kaithal",
          "coordinate": {
            "lat": 29.8015,
            "lng": 76.3998
          }
        },
        {
          "code": "18",
          "name": "Fatehabad",
          "fullCode": "HR18",
          "district": "Fatehabad",
          "coordinate": {
            "lat": 29.5152,
            "lng": 75.4549
          }
        },
        {
          "code": "19",
          "name": "Jhajjar",
          "fullCode": "HR19",
          "district": "Jhajjar",
          "coordinate": {
            "lat": 28.6063,
            "lng": 76.6556
          }
        },
        {
          "code": "20",
          "name": "Palwal",
          "fullCode": "HR20",
          "district": "Palwal",
          "coordinate": {
            "lat": 28.1487,
            "lng": 77.332
          }
        },
        {
          "code": "21",
          "name": "Mewat (Nuh)",
          "fullCode": "HR21",
          "district": "Mewat",
          "coordinate": {
            "lat": 28.1,
            "lng": 77.0
          }
        },
        {
          "code": "22",
          "name": "Dabwali",
          "fullCode": "HR22",
          "district": "Dabwali",
          "coordinate": {
            "lat": 29.95,
            "lng": 74.7333
          }
        },
        {
          "code": "23",
          "name": "Narnaul",
          "fullCode": "HR23",
          "district": "Narnaul",
          "coordinate": {
            "lat": 28.0444,
            "lng": 76.1116
          }
        },
        {
          "code": "24",
          "name": "Bahadurgarh",
          "fullCode": "HR24",
          "district": "Bahadurgarh",
          "coordinate": {
            "lat": 28.6926,
            "lng": 76.9316
          }
        },
        {
          "code": "25",
          "name": "Gurgaon (Additional)",
          "fullCode": "HR25",
          "district": "Gurgaon",
          "coordinate": {
            "lat": 28.4595,
            "lng": 77.0266
          }
        },
        {
          "code": "26",
          "name": "Faridabad (Additional)",
          "fullCode": "HR26",
          "district": "Faridabad",
          "coordinate": {
            "lat": 28.4089,
            "lng": 77.3178
          }
        },
        {
          "code": "27",
          "name": "Pehowa",
          "fullCode": "HR27",
          "district": "Pehowa",
          "coordinate": {
            "lat": 29.9833,
            "lng": 76.5833
          }
        },
        {
          "code": "28",
          "name": "Ladwa",
          "fullCode": "HR28",
          "district": "Ladwa",
          "coordinate": {
            "lat": 29.9942,
            "lng": 77.0456
          }
        },
        {
          "code": "29",
          "name": "Shahabad",
          "fullCode": "HR29",
          "district": "Shahabad",
          "coordinate": {
            "lat": 30.1667,
            "lng": 76.8667
          }
        },
        {
          "code": "30",
          "name": "Gharaunda",
          "fullCode": "HR30",
          "district": "Gharaunda",
          "coordinate": {
            "lat": 29.5333,
            "lng": 76.9667
          }
        },
        {
          "code": "31",
          "name": "Tosham",
          "fullCode": "HR31",
          "district": "Tosham",
          "coordinate": {
            "lat": 28.8833,
            "lng": 75.9167
          }
        },
        {
          "code": "32",
          "name": "Loharu",
          "fullCode": "HR32",
          "district": "Loharu",
          "coordinate": {
            "lat": 28.4333,
            "lng": 75.8
          }
        },
        {
          "code": "33",
          "name": "Hansi",
          "fullCode": "HR33",
          "district": "Hansi",
          "coordinate": {
            "lat": 29.1,
            "lng": 75.9667
          }
        },
        {
          "code": "34",
          "name": "Barwala",
          "fullCode": "HR34",
          "district": "Barwala",
          "coordinate": {
            "lat": 29.3667,
            "lng": 75.9
          }
        },
        {
          "code": "35",
          "name": "Adampur",
          "fullCode": "HR35",
          "district": "Adampur",
          "coordinate": {
            "lat": 29.2667,
            "lng": 75.7167
          }
        },
        {
          "code": "36",
          "name": "Uklana",
          "fullCode": "HR36",
          "district": "Uklana",
          "coordinate": {
            "lat": 29.5167,
            "lng": 75.8833
          }
        },
        {
          "code": "37",
          "name": "Naraingarh",
          "fullCode": "HR37",
          "district": "Naraingarh",
          "coordinate": {
            "lat": 30.4667,
            "lng": 77.1333
          }
        },
        {
          "code": "38",
          "name": "Kalka",
          "fullCode": "HR38",
          "district": "Kalka",
          "coordinate": {
            "lat": 30.8333,
            "lng": 76.9333
          }
        },
        {
          "code": "39",
          "name": "Rania",
          "fullCode": "HR39",
          "district": "Rania",
          "coordinate": {
            "lat": 29.5,
            "lng": 74.8333
          }
        },
        {
          "code": "40",
          "name": "Ellenabad",
          "fullCode": "HR40",
          "district": "Ellenabad",
          "coordinate": {
            "lat": 29.45,
            "lng": 74.6667
          }
        },
        {
          "code": "41",
          "name": "Tohana",
          "fullCode": "HR41",
          "district": "Tohana",
          "coordinate": {
            "lat": 29.7167,
            "lng": 75.9
          }
        },
        {
          "code": "42",
          "name": "Ratia",
          "fullCode": "HR42",
          "district": "Ratia",
          "coordinate": {
            "lat": 29.6833,
            "lng": 75.5667
          }
        },
        {
          "code": "43",
          "name": "Gohana",
          "fullCode": "HR43",
          "district": "Gohana",
          "coordinate": {
            "lat": 29.1333,
            "lng": 76.7
          }
        },
        {
          "code": "44",
          "name": "Hodal",
          "fullCode": "HR44",
          "district": "Hodal",
          "coordinate": {
            "lat": 27.8833,
            "lng": 77.3667
          }
        },
        {
          "code": "45",
          "name": "Hathin",
          "fullCode": "HR45",
          "district": "Hathin",
          "coordinate": {
            "lat": 28.0167,
            "lng": 77.1333
          }
        },
        {
          "code": "46",
          "name": "Sohna",
          "fullCode": "HR46",
          "district": "Sohna",
          "coordinate": {
            "lat": 28.25,
            "lng": 77.0667
          }
        },
        {
          "code": "47",
          "name": "Pataudi",
          "fullCode": "HR47",
          "district": "Pataudi",
          "coordinate": {
            "lat": 28.3333,
            "lng": 76.7833
          }
        },
        {
          "code": "48",
          "name": "Kosli",
          "fullCode": "HR48",
          "district": "Kosli",
          "coordinate": {
            "lat": 28.3167,
            "lng": 76.3333
          }
        },
        {
          "code": "49",
          "name": "Charkhi Dadri",
          "fullCode": "HR49",
          "district": "Charkhi Dadri",
          "coordinate": {
            "lat": 28.5833,
            "lng": 76.2667
          }
        },
        {
          "code": "50",
          "name": "Meham",
          "fullCode": "HR50",
          "district": "Meham",
          "coordinate": {
            "lat": 29.0167,
            "lng": 76.3167
          }
        },
        {
          "code": "51",
          "name": "Safidon",
          "fullCode": "HR51",
          "district": "Safidon",
          "coordinate": {
            "lat": 29.4,
            "lng": 76.6667
          }
        },
        {
          "code": "52",
          "name": "Narwana",
          "fullCode": "HR52",
          "district": "Narwana",
          "coordinate": {
            "lat": 29.6,
            "lng": 76.1167
          }
        },
        {
          "code": "53",
          "name": "Assandh",
          "fullCode": "HR53",
          "district": "Assandh",
          "coordinate": {
            "lat": 29.5167,
            "lng": 76.6167
          }
        },
        {
          "code": "54",
          "name": "Nilokheri",
          "fullCode": "HR54",
          "district": "Nilokheri",
          "coordinate": {
            "lat": 29.8333,
            "lng": 76.9167
          }
        },
        {
          "code": "55",
          "name": "Thanesar",
          "fullCode": "HR55",
          "district": "Thanesar",
          "coordinate": {
            "lat": 29.9667,
            "lng": 76.8167
          }
        },
        {
          "code": "56",
          "name": "Sampla",
          "fullCode": "HR56",
          "district": "Sampla",
          "coordinate": {
            "lat": 28.75,
            "lng": 76.55
          }
        },
        {
          "code": "57",
          "name": "Beri",
          "fullCode": "HR57",
          "district": "Beri",
          "coordinate": {
            "lat": 28.6,
            "lng": 76.5833
          }
        },
        {
          "code": "58",
          "name": "Kanina",
          "fullCode": "HR58",
          "district": "Kanina",
          "coordinate": {
            "lat": 28.3333,
            "lng": 76.3
          }
        },
        {
          "code": "59",
          "name": "Jagadhri",
          "fullCode": "HR59",
          "district": "Jagadhri",
          "coordinate": {
            "lat": 30.1667,
            "lng": 77.3
          }
        },
        {
          "code": "60",
          "name": "Chhachhrauli",
          "fullCode": "HR60",
          "district": "Chhachhrauli",
          "coordinate": {
            "lat": 30.2333,
            "lng": 77.3667
          }
        },
        {
          "code": "61",
          "name": "Radaur",
          "fullCode": "HR61",
          "district": "Radaur",
          "coordinate": {
            "lat": 30.0333,
            "lng": 77.15
          }
        },
        {
          "code": "62",
          "name": "Sadhaura",
          "fullCode": "HR62",
          "district": "Sadhaura",
          "coordinate": {
            "lat": 30.3833,
            "lng": 77.2167
          }
        },
        {
          "code": "63",
          "name": "Bilaspur",
          "fullCode": "HR63",
          "district": "Bilaspur",
          "coordinate": {
            "lat": 30.35,
            "lng": 77.3
          }
        },
        {
          "code": "64",
          "name": "Indri",
          "fullCode": "HR64",
          "district": "Indri",
          "coordinate": {
            "lat": 29.7833,
            "lng": 77.0667
          }
        },
        {
          "code": "65",
          "name": "Taraori",
          "fullCode": "HR65",
          "district": "Taraori",
          "coordinate": {
            "lat": 29.8167,
            "lng": 76.95
          }
        },
        {
          "code": "66",
          "name": "Cheeka",
          "fullCode": "HR66",
          "district": "Cheeka",
          "coordinate": {
            "lat": 29.9,
            "lng": 76.3333
          }
        },
        {
          "code": "67",
          "name": "Kalayat",
          "fullCode": "HR67",
          "district": "Kalayat",
          "coordinate": {
            "lat": 29.55,
            "lng": 76.25
          }
        },
        {
          "code": "68",
          "name": "Pundri",
          "fullCode": "HR68",
          "district": "Pundri",
          "coordinate": {
            "lat": 29.7667,
            "lng": 76.5667
          }
        },
        {
          "code": "69",
          "name": "Uchana",
          "fullCode": "HR69",
          "district": "Uchana",
          "coordinate": {
            "lat": 29.4833,
            "lng": 76.2
          }
        },
        {
          "code": "70",
          "name": "Julana",
          "fullCode": "HR70",
          "district": "Julana",
          "coordinate": {
            "lat": 29.1167,
            "lng": 76.4
          }
        },
        {
          "code": "71",
          "name": "Nuh",
          "fullCode": "HR71",
          "district": "Nuh",
          "coordinate": {
            "lat": 28.1,
            "lng": 77.0
          }
        },
        {
          "code": "72",
          "name": "Ferozepur Jhirka",
          "fullCode": "HR72",
          "district": "Ferozepur Jhirka",
          "coordinate": {
            "lat": 27.7833,
            "lng": 77.0333
          }
        },
        {
          "code": "73",
          "name": "Punhana",
          "fullCode": "HR73",
          "district": "Punhana",
          "coordinate": {
            "lat": 27.8833,
            "lng": 77.0
          }
        },
        {
          "code": "74",
          "name": "Tauru",
          "fullCode": "HR74",
          "district": "Tauru",
          "coordinate": {
            "lat": 28.1667,
            "lng": 76.9333
          }
        },
        {
          "code": "75",
          "name": "Badshahpur",
          "fullCode": "HR75",
          "district": "Badshahpur",
          "coordinate": {
            "lat": 28.3833,
            "lng": 77.0167
          }
        },
        {
          "code": "76",
          "name": "Dharuhera",
          "fullCode": "HR76",
          "district": "Dharuhera",
          "coordinate": {
            "lat": 28.2,
            "lng": 76.7833
          }
        },
        {
          "code": "77",
          "name": "Thanesar (Additional)",
          "fullCode": "HR77",
          "district": "Thanesar",
          "coordinate": {
            "lat": 29.9667,
            "lng": 76.8167
          }
        },
        {
          "code": "78",
          "name": "Ambala (Additional)",
          "fullCode": "HR78",
          "district": "Ambala",
          "coordinate": {
            "lat": 30.3782,
            "lng": 76.7767
          }
        },
        {
          "code": "79",
          "name": "Ballabgarh",
          "fullCode": "HR79",
          "district": "Ballabgarh",
          "coordinate": {
            "lat": 28.3333,
            "lng": 77.3167
          }
        },
        {
          "code": "80",
          "name": "Manesar",
          "fullCode": "HR80",
          "district": "Manesar",
          "coordinate": {
            "lat": 28.35,
            "lng": 76.9333
          }
        },
        {
          "code": "81",
          "name": "Bawal",
          "fullCode": "HR81",
          "district": "Bawal",
          "coordinate": {
            "lat": 28.0833,
            "lng": 76.5833
          }
        },
        {
          "code": "82",
          "name": "Ateli",
          "fullCode": "HR82",
          "district": "Ateli",
          "coordinate": {
            "lat": 28.1,
            "lng": 76.2667
          }
        },
        {
          "code": "83",
          "name": "Kalanaur",
          "fullCode": "HR83",
          "district": "Kalanaur",
          "coordinate": {
            "lat": 29.6833,
            "lng": 75.1667
          }
        },
        {
          "code": "84",
          "name": "Kalanwali",
          "fullCode": "HR84",
          "district": "Kalanwali",
          "coordinate": {
            "lat": 29.75,
            "lng": 74.9667
          }
        },
        {
          "code": "85",
          "name": "Barara",
          "fullCode": "HR85",
          "district": "Barara",
          "coordinate": {
            "lat": 30.2,
            "lng": 77.05
          }
        },
        {
          "code": "86",
          "name": "Siwani",
          "fullCode": "HR86",
          "district": "Siwani",
          "coordinate": {
            "lat": 28.6333,
            "lng": 75.6167
          }
        },
        {
          "code": "87",
          "name": "Bawani Khera",
          "fullCode": "HR87",
          "district": "Bawani Khera",
          "coordinate": {
            "lat": 28.8,
            "lng": 76.0333
          }
        },
        {
          "code": "88",
          "name": "Agroha",
          "fullCode": "HR88",
          "district": "Agroha",
          "coordinate": {
            "lat": 29.3167,
            "lng": 75.6167
          }
        },
        {
          "code": "89",
          "name": "Rohtak (Additional)",
          "fullCode": "HR89",
          "district": "Rohtak",
          "coordinate": {
            "lat": 28.8955,
            "lng": 76.6066
          }
        },
        {
          "code": "90",
          "name": "Hisar (Additional)",
          "fullCode": "HR90",
          "district": "Hisar",
          "coordinate": {
            "lat": 29.1492,
            "lng": 75.7217
          }
        },
        {
          "code": "91",
          "name": "Sonipat (Additional)",
          "fullCode": "HR91",
          "district": "Sonipat",
          "coordinate": {
            "lat": 28.9931,
            "lng": 77.0151
          }
        },
        {
          "code": "92",
          "name": "Karnal (Additional)",
          "fullCode": "HR92",
          "district": "Karnal",
          "coordinate": {
            "lat": 29.6857,
            "lng": 76.9905
          }
        }
      ]
    },
    {
      "code": "JH",
      "name": "Jharkhand",
      "type": "state",
      "capital": "Ranchi",
      "coordinate": {
        "lat": 23.3441,
        "lng": 85.3096
      },
      "rtos": [
        {
          "code": "01",
          "name": "Ranchi",
          "fullCode": "JH01",
          "district": "Ranchi",
          "coordinate": {
            "lat": 23.3441,
            "lng": 85.3096
          }
        },
        {
          "code": "02",
          "name": "Jamshedpur",
          "fullCode": "JH02",
          "district": "East Singhbhum",
          "coordinate": {
            "lat": 22.8046,
            "lng": 86.2029
          }
        },
        {
          "code": "03",
          "name": "Dhanbad",
          "fullCode": "JH03",
          "district": "Dhanbad",
          "coordinate": {
            "lat": 23.7957,
            "lng": 86.4304
          }
        },
        {
          "code": "04",
          "name": "Bokaro",
          "fullCode": "JH04",
          "district": "Bokaro",
          "coordinate": {
            "lat": 23.6693,
            "lng": 86.1511
          }
        },
        {
          "code": "05",
          "name": "Hazaribagh",
          "fullCode": "JH05",
          "district": "Hazaribagh",
          "coordinate": {
            "lat": 23.9924,
            "lng": 85.3637
          }
        },
        {
          "code": "06",
          "name": "Giridih",
          "fullCode": "JH06",
          "district": "Giridih",
          "coordinate": {
            "lat": 24.1854,
            "lng": 86.3013
          }
        },
        {
          "code": "07",
          "name": "Deoghar",
          "fullCode": "JH07",
          "district": "Deoghar",
          "coordinate": {
            "lat": 24.4764,
            "lng": 86.6943
          }
        },
        {
          "code": "08",
          "name": "Dumka",
          "fullCode": "JH08",
          "district": "Dumka",
          "coordinate": {
            "lat": 24.2683,
            "lng": 87.2494
          }
        },
        {
          "code": "09",
          "name": "Chaibasa",
          "fullCode": "JH09",
          "district": "West Singhbhum",
          "coordinate": {
            "lat": 22.55,
            "lng": 85.8
          }
        },
        {
          "code": "10",
          "name": "Palamu",
          "fullCode": "JH10",
          "district": "Palamu",
          "coordinate": {
            "lat": 24.0268,
            "lng": 84.0531
          }
        },
        {
          "code": "11",
          "name": "Gumla",
          "fullCode": "JH11",
          "district": "Gumla",
          "coordinate": {
            "lat": 23.05,
            "lng": 84.5333
          }
        },
        {
          "code": "12",
          "name": "Lohardaga",
          "fullCode": "JH12",
          "district": "Lohardaga",
          "coordinate": {
            "lat": 23.4333,
            "lng": 84.6833
          }
        },
        {
          "code": "13",
          "name": "Simdega",
          "fullCode": "JH13",
          "district": "Simdega",
          "coordinate": {
            "lat": 22.6167,
            "lng": 84.5
          }
        },
        {
          "code": "14",
          "name": "Sahibganj",
          "fullCode": "JH14",
          "district": "Sahibganj",
          "coordinate": {
            "lat": 25.25,
            "lng": 87.6333
          }
        },
        {
          "code": "15",
          "name": "Godda",
          "fullCode": "JH15",
          "district": "Godda",
          "coordinate": {
            "lat": 24.8333,
            "lng": 87.2167
          }
        },
        {
          "code": "16",
          "name": "Pakur",
          "fullCode": "JH16",
          "district": "Pakur",
          "coordinate": {
            "lat": 24.6333,
            "lng": 87.85
          }
        },
        {
          "code": "17",
          "name": "Koderma",
          "fullCode": "JH17",
          "district": "Koderma",
          "coordinate": {
            "lat": 24.4667,
            "lng": 85.5833
          }
        },
        {
          "code": "18",
          "name": "Chatra",
          "fullCode": "JH18",
          "district": "Chatra",
          "coordinate": {
            "lat": 24.2,
            "lng": 84.8667
          }
        },
        {
          "code": "19",
          "name": "Seraikela",
          "fullCode": "JH19",
          "district": "Seraikela Kharsawan",
          "coordinate": {
            "lat": 22.7,
            "lng": 86.0833
          }
        },
        {
          "code": "20",
          "name": "Garhwa",
          "fullCode": "JH20",
          "district": "Garhwa",
          "coordinate": {
            "lat": 24.1667,
            "lng": 83.8
          }
        },
        {
          "code": "21",
          "name": "Latehar",
          "fullCode": "JH21",
          "district": "Latehar",
          "coordinate": {
            "lat": 23.75,
            "lng": 84.5
          }
        },
        {
          "code": "22",
          "name": "Ramgarh",
          "fullCode": "JH22",
          "district": "Ramgarh",
          "coordinate": {
            "lat": 23.6333,
            "lng": 85.5167
          }
        },
        {
          "code": "23",
          "name": "Khunti",
          "fullCode": "JH23",
          "district": "Khunti",
          "coordinate": {
            "lat": 23.0667,
            "lng": 85.2833
          }
        },
        {
          "code": "24",
          "name": "Jamtara",
          "fullCode": "JH24",
          "district": "Jamtara",
          "coordinate": {
            "lat": 23.9667,
            "lng": 86.8
          }
        }
      ]
    },
    {
      "code": "JK",
      "name": "Jammu and Kashmir",
      "type": "ut",
      "capital": "Srinagar",
      "coordinate": {
        "lat": 34.0837,
        "lng": 74.7973
      },
      "rtos": [
        {
          "code": "01",
          "name": "Srinagar",
          "fullCode": "JK01",
          "district": "Srinagar",
          "coordinate": {
            "lat": 34.0837,
            "lng": 74.7973
          }
        },
        {
          "code": "02",
          "name": "Jammu",
          "fullCode": "JK02",
          "district": "Jammu",
          "coordinate": {
            "lat": 32.7266,
            "lng": 74.857
          }
        },
        {
          "code": "03",
          "name": "Anantnag",
          "fullCode": "JK03",
          "district": "Anantnag",
          "coordinate": {
            "lat": 33.7311,
            "lng": 75.1487
          }
        },
        {
          "code": "04",
          "name": "Baramulla",
          "fullCode": "JK04",
          "district": "Baramulla",
          "coordinate": {
            "lat": 34.204,
            "lng": 74.3436
          }
        },
        {
          "code": "05",
          "name": "Budgam",
          "fullCode": "JK05",
          "district": "Budgam",
          "coordinate": {
            "lat": 33.8933,
            "lng": 74.7339
          }
        },
        {
          "code": "06",
          "name": "Kathua",
          "fullCode": "JK06",
          "district": "Kathua",
          "coordinate": {
            "lat": 32.3862,
            "lng": 75.5193
          }
        },
        {
          "code": "07",
          "name": "Kupwara",
          "fullCode": "JK07",
          "district": "Kupwara",
          "coordinate": {
            "lat": 34.5266,
            "lng": 74.2541
          }
        },
        {
          "code": "08",
          "name": "Pulwama",
          "fullCode": "JK08",
          "district": "Pulwama",
          "coordinate": {
            "lat": 33.8718,
            "lng": 74.8955
          }
        },
        {
          "code": "09",
          "name": "Rajouri",
          "fullCode": "JK09",
          "district": "Rajouri",
          "coordinate": {
            "lat": 33.3778,
            "lng": 74.3094
          }
        },
        {
          "code": "10",
          "name": "Doda",
          "fullCode": "JK10",
          "district": "Doda",
          "coordinate": {
            "lat": 33.15,
            "lng": 75.55
          }
        },
        {
          "code": "11",
          "name": "Udhampur",
          "fullCode": "JK11",
          "district": "Udhampur",
          "coordinate": {
            "lat": 32.9161,
            "lng": 75.1322
          }
        },
        {
          "code": "12",
          "name": "Poonch",
          "fullCode": "JK12",
          "district": "Poonch",
          "coordinate": {
            "lat": 33.77,
            "lng": 74.09
          }
        },
        {
          "code": "13",
          "name": "Samba",
          "fullCode": "JK13",
          "district": "Samba",
          "coordinate": {
            "lat": 32.55,
            "lng": 75.1167
          }
        },
        {
          "code": "14",
          "name": "Reasi",
          "fullCode": "JK14",
          "district": "Reasi",
          "coordinate": {
            "lat": 33.0833,
            "lng": 74.8333
          }
        },
        {
          "code": "15",
          "name": "Ramban",
          "fullCode": "JK15",
          "district": "Ramban",
          "coordinate": {
            "lat": 33.25,
            "lng": 75.2333
          }
        },
        {
          "code": "16",
          "name": "Kishtwar",
          "fullCode": "JK16",
          "district": "Kishtwar",
          "coordinate": {
            "lat": 33.3167,
            "lng": 75.7667
          }
        },
        {
          "code": "17",
          "name": "Kulgam",
          "fullCode": "JK17",
          "district": "Kulgam",
          "coordinate": {
            "lat": 33.6444,
            "lng": 75.0194
          }
        },
        {
          "code": "18",
          "name": "Shopian",
          "fullCode": "JK18",
          "district": "Shopian",
          "coordinate": {
            "lat": 33.7167,
            "lng": 74.8333
          }
        },
        {
          "code": "19",
          "name": "Bandipora",
          "fullCode": "JK19",
          "district": "Bandipora",
          "coordinate": {
            "lat": 34.4167,
            "lng": 74.65
          }
        },
        {
          "code": "20",
          "name": "Ganderbal",
          "fullCode": "JK20",
          "district": "Ganderbal",
          "coordinate": {
            "lat": 34.2272,
            "lng": 74.7794
          }
        }
      ]
    },
    {
      "code": "KA",
      "name": "Karnataka",
      "type": "state",
      "capital": "Bengaluru",
      "coordinate": {
        "lat": 12.9716,
        "lng": 77.5946
      },
      "rtos": [
        {
          "code": "01",
          "name": "Bangalore (Central)",
          "fullCode": "KA01",
          "district": "Bangalore Urban",
          "coordinate": {
            "lat": 12.9716,
            "lng": 77.5946
          }
        },
        {
          "code": "02",
          "name": "Bangalore (West)",
          "fullCode": "KA02",
          "district": "Bangalore Urban",
          "coordinate": {
            "lat": 12.9716,
            "lng": 77.5946
          }
        },
        {
          "code": "03",
          "name": "Bangalore (East)",
          "fullCode": "KA03",
          "district": "Bangalore Urban",
          "coordinate": {
            "lat": 12.9716,
            "lng": 77.5946
          }
        },
        {
          "code": "04",
          "name": "Bangalore (North)",
          "fullCode": "KA04",
          "district": "Bangalore Urban",
          "coordinate": {
            "lat": 12.9716,
            "lng": 77.5946
          }
        },
        {
          "code": "05",
          "name": "Bangalore (South)",
          "fullCode": "KA05",
          "district": "Bangalore Urban",
          "coordinate": {
            "lat": 12.9716,
            "lng": 77.5946
          }
        },
        {
          "code": "06",
          "name": "Tumkur",
          "fullCode": "KA06",
          "district": "Tumkur",
          "coordinate": {
            "lat": 13.3379,
            "lng": 77.1173
          }
        },
        {
          "code": "07",
          "name": "Kolar",
          "fullCode": "KA07",
          "district": "Kolar",
          "coordinate": {
            "lat": 13.136,
            "lng": 78.1292
          }
        },
        {
          "code": "08",
          "name": "Mysore",
          "fullCode": "KA08",
          "district": "Mysore",
          "coordinate": {
            "lat": 12.2958,
            "lng": 76.6394
          }
        },
        {
          "code": "09",
          "name": "Mandya",
          "fullCode": "KA09",
          "district": "Mandya",
          "coordinate": {
            "lat": 12.5222,
            "lng": 76.8951
          }
        },
        {
          "code": "10",
          "name": "Hassan",
          "fullCode": "KA10",
          "district": "Hassan",
          "coordinate": {
            "lat": 13.0072,
            "lng": 76.0962
          }
        },
        {
          "code": "11",
          "name": "Chitradurga",
          "fullCode": "KA11",
          "district": "Chitradurga",
          "coordinate": {
            "lat": 14.2226,
            "lng": 76.3987
          }
        },
        {
          "code": "12",
          "name": "Davangere",
          "fullCode": "KA12",
          "district": "Davangere",
          "coordinate": {
            "lat": 14.4644,
            "lng": 75.9218
          }
        },
        {
          "code": "13",
          "name": "Shimoga",
          "fullCode": "KA13",
          "district": "Shimoga",
          "coordinate": {
            "lat": 13.9299,
            "lng": 75.5681
          }
        },
        {
          "code": "14",
          "name": "Chickmagalur",
          "fullCode": "KA14",
          "district": "Chickmagalur",
          "coordinate": {
            "lat": 13.3153,
            "lng": 75.7754
          }
        },
        {
          "code": "15",
          "name": "Udupi",
          "fullCode": "KA15",
          "district": "Udupi",
          "coordinate": {
            "lat": 13.3409,
            "lng": 74.7421
          }
        },
        {
          "code": "16",
          "name": "Dakshina Kannada (Mangalore)",
          "fullCode": "KA16",
          "district": "Dakshina Kannada",
          "coordinate": {
            "lat": 12.9141,
            "lng": 74.856
          }
        },
        {
          "code": "17",
          "name": "Dharwad",
          "fullCode": "KA17",
          "district": "Dharwad",
          "coordinate": {
            "lat": 15.4589,
            "lng": 75.0078
          }
        },
        {
          "code": "18",
          "name": "Belgaum",
          "fullCode": "KA18",
          "district": "Belgaum",
          "coordinate": {
            "lat": 15.8497,
            "lng": 74.4977
          }
        },
        {
          "code": "19",
          "name": "Bijapur (Vijayapura)",
          "fullCode": "KA19",
          "district": "Vijayapura",
          "coordinate": {
            "lat": 16.8302,
            "lng": 75.71
          }
        },
        {
          "code": "20",
          "name": "Gulbarga (Kalaburagi)",
          "fullCode": "KA20",
          "district": "Kalaburagi",
          "coordinate": {
            "lat": 17.3297,
            "lng": 76.8343
          }
        },
        {
          "code": "21",
          "name": "Raichur",
          "fullCode": "KA21",
          "district": "Raichur",
          "coordinate": {
            "lat": 16.2076,
            "lng": 77.3463
          }
        },
        {
          "code": "22",
          "name": "Bellary",
          "fullCode": "KA22",
          "district": "Bellary",
          "coordinate": {
            "lat": 15.1394,
            "lng": 76.9214
          }
        },
        {
          "code": "23",
          "name": "Uttara Kannada (Karwar)",
          "fullCode": "KA23",
          "district": "Uttara Kannada",
          "coordinate": {
            "lat": 14.8104,
            "lng": 74.1298
          }
        },
        {
          "code": "24",
          "name": "Bagalkot",
          "fullCode": "KA24",
          "district": "Bagalkot",
          "coordinate": {
            "lat": 16.1691,
            "lng": 75.6615
          }
        },
        {
          "code": "25",
          "name": "Bidar",
          "fullCode": "KA25",
          "district": "Bidar",
          "coordinate": {
            "lat": 17.9132,
            "lng": 77.5199
          }
        },
        {
          "code": "26",
          "name": "Kodagu (Madikeri)",
          "fullCode": "KA26",
          "district": "Kodagu",
          "coordinate": {
            "lat": 12.4244,
            "lng": 75.7382
          }
        },